STOP_ID,DIRECTION_ID,STOP_NAME,STATION_NAME,STATION_DESCRIPTIVE_NAME,MAP_ID,ADA,RED,BLUE,G,BRN,P,Pexp,Y,Pnk,O,Location,Neighborhood,City
30162.0,W,18th (54th/Cermak-bound),18th,18th (Pink Line),40830.0,True,False,False,False,False,False,False,False,True,False,"(41.857908, -87.669147)",Chicago Loop,Chicago
30161.0,E,18th (Loop-bound),18th,18th (Pink Line),40830.0,True,False,False,False,False,False,False,False,True,False,"(41.857908, -87.669147)",Chicago Loop,Chicago
30022.0,N,35th/Archer (Loop-bound),35th/Archer,35th/Archer (Orange Line),40120.0,True,False,False,False,False,False,False,False,False,True,"(41.829353, -87.680622)",Chicago Loop,Chicago
30023.0,S,35th/Archer (Midway-bound),35th/Archer,35th/Archer (Orange Line),40120.0,True,False,False,False,False,False,False,False,False,True,"(41.829353, -87.680622)",Garfield Park,Chicago
30214.0,S,35-Bronzeville-IIT (63rd-bound),35th-Bronzeville-IIT,35th-Bronzeville-IIT (Green Line),41120.0,True,False,False,True,False,False,False,False,False,False,"(41.831677, -87.625826)",Douglas,Chicago
30213.0,N,35-Bronzeville-IIT (Harlem-bound),35th-Bronzeville-IIT,35th-Bronzeville-IIT (Green Line),41120.0,True,False,False,True,False,False,False,False,False,False,"(41.831677, -87.625826)",Douglas,Chicago
30246.0,S,43rd (63rd-bound),43rd,43rd (Green Line),41270.0,True,False,False,True,False,False,False,False,False,False,"(41.816462, -87.619021)",Bronzeville,Chicago
30245.0,N,43rd (Harlem-bound),43rd,43rd (Green Line),41270.0,True,False,False,True,False,False,False,False,False,False,"(41.816462, -87.619021)",Bronzeville,Chicago
30025.0,S,51st (63rd-bound),51st,51st (Green Line),40130.0,True,False,False,True,False,False,False,False,False,False,"(41.80209, -87.618487)",Bronzeville,Chicago
30024.0,N,51st (Harlem-bound),51st,51st (Green Line),40130.0,True,False,False,True,False,False,False,False,False,False,"(41.80209, -87.618487)",Bronzeville,Chicago
30113.0,E,54th/Cermak (Loop-bound),54th/Cermak,54th/Cermak (Pink Line),40580.0,True,False,False,False,False,False,False,False,True,False,"(41.85177331, -87.75669201)",NA,Cicero
30114.0,W,54th/Cermak (Terminal arrival),54th/Cermak,54th/Cermak (Pink Line),40580.0,True,False,False,False,False,False,False,False,True,False,"(41.85177331, -87.75669201)",NA,Cicero
30192.0,S,69th (95th-bound),69th,69th (Red Line),40990.0,True,True,False,False,False,False,False,False,False,False,"(41.768367, -87.625724)",Greater Grand Crossing,Chicago
30191.0,N,69th (Howard-bound),69th,69th (Red Line),40990.0,True,True,False,False,False,False,False,False,False,False,"(41.768367, -87.625724)",Greater Grand Crossing,Chicago
30047.0,S,79th (95th-bound),79th,79th (Red Line),40240.0,True,True,False,False,False,False,False,False,False,False,"(41.750419, -87.625112)",South Side,Chicago
30046.0,N,79th (Howard-bound),79th,79th (Red Line),40240.0,True,True,False,False,False,False,False,False,False,False,"(41.750419, -87.625112)",South Side,Chicago
30089.0,S,95th/Dan Ryan (95th-bound),95th/Dan Ryan,95th/Dan Ryan (Red Line),40450.0,True,True,False,False,False,False,False,False,False,False,"(41.722377, -87.624342)",Roseland,Chicago
30088.0,N,95th/Dan Ryan (Howard-bound),95th/Ran Ryan,95th/Ran Ryan (Red Line),40450.0,True,True,False,False,False,False,False,False,False,False,"(41.722377, -87.624342)",Roseland,Chicago
30132.0,S,Adams/Wabash (Inner Loop),Adams/Wabash,"Adams/Wabash (Brown, Green, Orange, Pink & Purple Lines)",40680.0,False,False,False,True,False,False,True,False,True,True,"(41.879507, -87.626037)",Chicago Loop,Chicago
30131.0,N,Adams/Wabash (Outer Loop),Adams/Wabash,"Adams/Wabash (Brown, Green, Orange, Pink & Purple Lines)",40680.0,False,False,False,True,True,False,False,False,False,False,"(41.879507, -87.626037)",Chicago Loop,Chicago
30277.0,N,Addison (Kimball-bound),Addison,Addison (Brown Line),41440.0,True,False,False,False,True,False,False,False,False,False,"(41.947028, -87.674642)",North Center,Chicago
30278.0,S,Addison (Loop-bound),Addison,Addison (Brown Line),41440.0,True,False,False,False,True,False,False,False,False,False,"(41.947028, -87.674642)",North Center,Chicago
30274.0,S,Addison (95th-bound),Addison,Addison (Red Line),41420.0,True,True,False,False,False,False,False,False,False,False,"(41.947428, -87.653626)",Lake View East,Chicago
30273.0,N,Addison (Howard-bound),Addison,Addison (Red Line),41420.0,True,True,False,False,False,False,False,False,False,False,"(41.947428, -87.653626)",Lake View East,Chicago
30230.0,S,Argyle (95th-bound),Argyle,Argyle (Red Line),41200.0,False,True,False,False,False,False,False,False,False,False,"(41.973453, -87.65853)",Uptown,Chicago
30229.0,N,Argyle (Howard-bound),Argyle,Argyle (Red Line),41200.0,False,True,False,False,False,False,False,False,False,False,"(41.973453, -87.65853)",Uptown,Chicago
30275.0,N,87th (Howard-bound),87th,87th (Red Line),41430.0,True,True,False,False,False,False,False,False,False,False,"(41.735372, -87.624717)",South Side,Chicago
30127.0,N,Armitage (Kimball-Linden-bound),Armitage,Armitage (Brown & Purple Lines),40660.0,True,False,False,False,True,False,True,False,False,False,"(41.918217, -87.652644)",Lincoln Park,Chicago
30128.0,S,Armitage (Loop-bound),Armitage,Armitage (Brown & Purple Lines),40660.0,True,False,False,False,True,False,True,False,False,False,"(41.918217, -87.652644)",Lincoln Park,Chicago
30205.0,N,Ashland (Loop-bound),Ashland,Ashland (Orange Line),41060.0,True,False,False,False,False,False,False,False,False,True,"(41.839234, -87.665317)",Lower West Side,Chicago
30206.0,S,Ashland (Midway-bound),Ashland,Ashland (Orange Line),41060.0,True,False,False,False,False,False,False,False,False,True,"(41.839234, -87.665317)",Lower West Side,Chicago
30056.0,E,Ashland/63rd (Harlem-bound),Ashland/63rd,Ashland/63rd (Green Line),40290.0,True,False,False,True,False,False,False,False,False,False,"(41.77886, -87.663766)",West Englewood,Chicago
30057.0,W,Ashland/63rd (Terminal arrival),Ashland/63rd,Ashland/63rd (Green Line),40290.0,True,False,False,True,False,False,False,False,False,False,"(41.77886, -87.663766)",West Englewood,Chicago
30002.0,W,Austin (Forest Pk-bound),Austin,Austin (Blue Line),40010.0,False,False,True,False,False,False,False,False,False,False,"(41.870851, -87.776812)",NA,Oak Park
30001.0,E,Austin (O'Hare-bound),Austin,Austin (Blue Line),40010.0,False,False,True,False,False,False,False,False,False,False,"(41.870851, -87.776812)",NA,Oak Park
30243.0,E,Austin (63rd-bound),Austin,Austin (Green Line),41260.0,False,False,False,True,False,False,False,False,False,False,"(41.887293, -87.774135)",Austin,Chicago
30244.0,W,Austin (Harlem-bound),Austin,Austin (Green Line),41260.0,False,False,False,True,False,False,False,False,False,False,"(41.887293, -87.774135)",Austin,Chicago
30013.0,S,Belmont (O'Hare Branch) (Forest Pk-bound),Belmont,Belmont (Blue Line),40060.0,False,False,True,False,False,False,False,False,False,False,"(41.938132, -87.712359)",Avondale,Chicago
30012.0,N,Belmont (O'Hare Branch) (O'Hare-bound),Belmont,Belmont (Blue Line),40060.0,False,False,True,False,False,False,False,False,False,False,"(41.938132, -87.712359)",Avondale,Chicago
30256.0,S,Belmont (95th-bound),Belmont,"Belmont (Red, Brown & Purple Lines)",41320.0,True,True,False,False,False,False,False,False,False,False,"(41.939751, -87.65338)",Lake View East,Chicago
30255.0,N,Belmont (Howard-bound),Belmont,"Belmont (Red, Brown & Purple Lines)",41320.0,True,True,False,False,False,False,False,False,False,False,"(41.939751, -87.65338)",Lake View East,Chicago
30257.0,N,Belmont (Kimball-Linden-bound),Belmont,"Belmont (Red, Brown & Purple Lines)",41320.0,True,False,False,False,True,False,True,False,False,False,"(41.939751, -87.65338)",Lake View East,Chicago
30258.0,S,Belmont (Loop-bound),Belmont,"Belmont (Red, Brown & Purple Lines)",41320.0,True,False,False,False,True,False,True,False,False,False,"(41.939751, -87.65338)",Lake View East,Chicago
30067.0,S,Berwyn (95th-bound),Berwyn,Berwyn (Red Line),40340.0,False,True,False,False,False,False,False,False,False,False,"(41.977984, -87.658668)",Edgewater,Chicago
30066.0,N,Berwyn (Howard-bound),Berwyn,Berwyn (Red Line),40340.0,False,True,False,False,False,False,False,False,False,False,"(41.977984, -87.658668)",Edgewater,Chicago
30268.0,S,Bryn Mawr (95th-bound),Bryn Mawr,Bryn Mawr (Red Line),41380.0,False,True,False,False,False,False,False,False,False,False,"(41.983504, -87.65884)",Edgewater,Chicago
30267.0,N,Bryn Mawr (Howard-bound),Bryn Mawr,Bryn Mawr (Red Line),41380.0,False,True,False,False,False,False,False,False,False,False,"(41.983504, -87.65884)",Edgewater,Chicago
30087.0,W,California (54th/Cermak-bound),California,California (Pink Line),40440.0,True,False,False,False,False,False,False,False,True,False,"(41.854109, -87.694774)",Marshall Square,Chicago
30086.0,E,California (Loop-bound),California,California (Pink Line),40440.0,True,False,False,False,False,False,False,False,True,False,"(41.854109, -87.694774)",Marshall Square,Chicago
30265.0,E,California (63rd-bound),California,California (Green Line),41360.0,True,False,False,True,False,False,False,False,False,False,"(41.88422, -87.696234)",Garfield Park,Chicago
30266.0,W,California (Harlem-bound),California,California (Green Line),41360.0,True,False,False,True,False,False,False,False,False,False,"(41.88422, -87.696234)",Garfield Park,Chicago
30054.0,E,Central (63rd-bound),Central,Central (Green Line),40280.0,True,False,False,True,False,False,False,False,False,False,"(41.887389, -87.76565)",Austin,Chicago
30055.0,W,Central (Harlem-bound),Central,Central (Green Line),40280.0,True,False,False,True,False,False,False,False,False,False,"(41.887389, -87.76565)",Austin,Chicago
30152.0,W,Central Park (54th/Cermak-bound),Central Park,Central Park (Pink Line),40780.0,True,False,False,False,False,False,False,False,True,False,"(41.853839, -87.714842)",North Lawndale,Chicago
30151.0,E,Central Park (Loop-bound),Central Park,Central Park (Pink Line),40780.0,True,False,False,False,False,False,False,False,True,False,"(41.853839, -87.714842)",North Lawndale,Chicago
30194.0,S,Cermak-Chinatown (95th-bound),Cermak-Chinatown,Cermak-Chinatown (Red Line),41000.0,True,True,False,False,False,False,False,False,False,False,"(41.853206, -87.630968)",South Loop,Chicago
30193.0,N,Cermak-Chinatown (Howard-bound),Cermak-Chinatown,Cermak-Chinatown (Red Line),41000.0,True,True,False,False,False,False,False,False,False,False,"(41.853206, -87.630968)",South Loop,Chicago
30242.0,S,Central (Howard-Loop-bound),Central,Central (Purple Line),41250.0,False,False,False,False,False,True,True,False,False,False,"(42.063987, -87.685617)",NA,Evanston
30241.0,N,Central (Linden-bound),Central,Central (Purple Line),41250.0,False,False,False,False,False,True,True,False,False,False,"(42.063987, -87.685617)",NA,Evanston
30083.0,W,Cicero (54th/Cermak-bound),Cicero,Cicero (Pink Line),40420.0,True,False,False,False,False,False,False,False,True,False,"(41.85182, -87.745336)",NA,Cicero
30082.0,E,Cicero (Loop-bound),Cicero,Cicero (Pink Line),40420.0,True,False,False,False,False,False,False,False,True,False,"(41.85182, -87.745336)",NA,Cicero
30188.0,W,Cicero (Forest Pk-bound),Cicero,Cicero (Blue Line),40970.0,False,False,True,False,False,False,False,False,False,False,"(41.871574, -87.745154)",Austin,Chicago
30187.0,E,Cicero (O'Hare-bound),Cicero,Cicero (Blue Line),40970.0,False,False,True,False,False,False,False,False,False,False,"(41.871574, -87.745154)",Austin,Chicago
30094.0,E,Cicero (63rd-bound),Cicero,Cicero (Green Line),40480.0,True,False,False,True,False,False,False,False,False,False,"(41.886519, -87.744698)",Austin,Chicago
30009.0,W,Cicero (Harlem-bound),Cicero,Cicero (Green Line),40480.0,True,False,False,True,False,False,False,False,False,False,"(41.886519, -87.744698)",Austin,Chicago
30074.0,E,Clark/Lake (Inner Loop),Clark/Lake,"Clark/Lake (Blue, Brown, Green, Orange, Purple & Pink Lines)",40380.0,True,False,False,True,False,False,True,False,True,True,"(41.885737, -87.630886)",Chicago Loop,Chicago
30075.0,W,Clark/Lake (Outer Loop),Clark/Lake,"Clark/Lake (Blue, Brown, Green, Orange, Purple & Pink Lines)",40380.0,True,False,False,True,True,False,False,False,False,False,"(41.885737, -87.630886)",Chicago Loop,Chicago
30374.0,S,Clark/Lake (Forest Pk-bound),Clark/Lake,"Clark/Lake (Blue, Brown, Green, Orange, Purple & Pink Lines)",40380.0,True,False,True,False,False,False,False,False,False,False,"(41.885737, -87.630886)",Chicago Loop,Chicago
30375.0,N,Clark/Lake (O'Hare-bound),Clark/Lake,"Clark/Lake (Blue, Brown, Green, Orange, Purple & Pink Lines)",40380.0,True,False,True,False,False,False,False,False,False,False,"(41.885737, -87.630886)",Chicago Loop,Chicago
30085.0,W,Clinton (Forest Pk-bound),Clinton,Clinton (Blue Line),40430.0,False,False,True,False,False,False,False,False,False,False,"(41.875539, -87.640984)",Near West Side,Chicago
30084.0,E,Clinton (O'Hare-bound),Clinton,Clinton (Blue Line),40430.0,False,False,True,False,False,False,False,False,False,False,"(41.875539, -87.640984)",Near West Side,Chicago
30222.0,W,Clinton (Harlem-54th/Cermak-bound),Clinton,Clinton (Green & Pink Lines),41160.0,True,False,False,True,False,False,False,False,True,False,"(41.885678, -87.641782)",West Loop,Chicago
30221.0,E,Clinton (Loop-63rd-bound),Clinton,Clinton (Green & Pink Lines),41160.0,True,False,False,True,False,False,False,False,True,False,"(41.885678, -87.641782)",West Loop,Chicago
30291.0,E,Conservatory (63rd-bound),Conservatory,Conservatory (Green Line),41670.0,True,False,False,True,False,False,False,False,False,False,"(41.884904, -87.716523)",Garfield Park,Chicago
30292.0,W,Conservatory (Harlem-bound),Conservatory,Conservatory (Green Line),41670.0,True,False,False,True,False,False,False,False,False,False,"(41.884904, -87.716523)",Garfield Park,Chicago
30139.0,E,Cottage Grove (Terminal arrival),Cottage Grove,Cottage Grove (Green Line),40720.0,True,False,False,True,False,False,False,False,False,False,"(41.780309, -87.605857)",Woodlawn,Chicago
30045.0,S,Cumberland (Forest Pk-bound),Cumberland,Cumberland (Blue Line),40230.0,True,False,True,False,False,False,False,False,False,False,"(41.984246, -87.838028)",O'Hare,Chicago
30044.0,N,Cumberland (O'Hare-bound),Cumberland,Cumberland (Blue Line),40230.0,True,False,True,False,False,False,False,False,False,False,"(41.984246, -87.838028)",O'Hare,Chicago
30041.0,W,Damen (54th/Cermak-bound),Damen,Damen (Pink Line),40210.0,True,False,False,False,False,False,False,False,True,False,"(41.854517, -87.675975)",Lower West Side,Chicago
30040.0,E,Damen (Loop-bound),Damen,Damen (Pink Line),40210.0,True,False,False,False,False,False,False,False,True,False,"(41.854517, -87.675975)",Lower West Side,Chicago
30116.0,S,Damen/Milwaukee (Forest Pk-bound),Damen,Damen (Blue Line),40590.0,False,False,True,False,False,False,False,False,False,False,"(41.909744, -87.677437)",West Town,Chicago
30115.0,N,Damen/Milwaukee (O'Hare-bound),Damen,Damen (Blue Line),40590.0,False,False,True,False,False,False,False,False,False,False,"(41.909744, -87.677437)",West Town,Chicago
30018.0,N,Damen (Kimball-bound),Damen,Damen (Brown Line),40090.0,True,False,False,False,True,False,False,False,False,False,"(41.966286, -87.678639)",Lincoln Square,Chicago
30019.0,S,Damen (Loop-bound),Damen,Damen (Brown Line),40090.0,True,False,False,False,True,False,False,False,False,False,"(41.966286, -87.678639)",Lincoln Square,Chicago
30011.0,S,Davis (Howard-Loop-bound),Davis,Davis (Purple Line),40050.0,True,False,False,False,False,True,True,False,False,False,"(42.04771, -87.683543)",NA,Evanston
30010.0,N,Davis (Linden-bound),Davis,Davis (Purple Line),40050.0,True,False,False,False,False,True,True,False,False,False,"(42.04771, -87.683543)",NA,Evanston
30134.0,S,Dempster (Howard-Loop-bound),Dempster,Dempster (Purple Line),40690.0,False,False,False,False,False,True,True,False,False,False,"(42.041655, -87.681602)",NA,Evanston
30133.0,N,Dempster (Linden-bound),Dempster,Dempster (Purple Line),40690.0,False,False,False,False,False,True,True,False,False,False,"(42.041655, -87.681602)",NA,Evanston
30103.0,N,Diversey (Kimball-Linden-bound),Diversey,Diversey (Brown & Purple Lines),40530.0,True,False,False,False,True,False,True,False,False,False,"(41.932732, -87.653131)",Lincoln Park,Chicago
30104.0,S,Diversey (Loop-bound),Diversey,Diversey (Brown & Purple Lines),40530.0,True,False,False,False,True,False,True,False,False,False,"(41.932732, -87.653131)",Lincoln Park,Chicago
30063.0,S,Division (Forest Pk-bound),Division,Division (Blue Line),40320.0,False,False,True,False,False,False,False,False,False,False,"(41.903355, -87.666496)",Pulaski Park,Chicago
30076.0,E,Forest Park (O'Hare-bound),Forest Park,Forest Park (Blue Line),40390.0,True,False,True,False,False,False,False,False,False,False,"(41.874257, -87.817318)",NA,Forest Park
30077.0,W,Forest Park (Terminal Arrival),Forest Park,Forest Park (Blue Line),40390.0,True,False,True,False,False,False,False,False,False,False,"(41.874257, -87.817318)",NA,Forest Park
30102.0,S,Foster (Howard-Loop-bound),Foster,Foster (Purple Line),40520.0,False,False,False,False,False,True,True,False,False,False,"(42.05416, -87.68356)",NA,Evanston
30101.0,N,Foster (Linden-bound),Foster,Foster (Purple Line),40520.0,False,False,False,False,False,True,True,False,False,False,"(42.05416, -87.68356)",NA,Evanston
30167.0,N,Francisco (Kimball-bound),Francisco,Francisco (Brown Line),40870.0,True,False,False,False,True,False,False,False,False,False,"(41.966046, -87.701644)",Albany Park,Chicago
30168.0,S,Francisco (Loop-bound),Francisco,Francisco (Brown Line),40870.0,True,False,False,False,True,False,False,False,False,False,"(41.966046, -87.701644)",Albany Park,Chicago
30234.0,S,Fullerton (95th-bound),Fullerton,"Fullerton (Red, Brown & Purple Lines)",41220.0,True,True,False,False,False,False,False,False,False,False,"(41.925051, -87.652866)",Sheffield & DePaul,Chicago
30233.0,N,Fullerton (Howard-bound),Fullerton,"Fullerton (Red, Brown & Purple Lines)",41220.0,True,True,False,False,False,False,False,False,False,False,"(41.925051, -87.652866)",Sheffield & DePaul,Chicago
30235.0,N,Fullerton (Kimball-Linden-bound),Fullerton,"Fullerton (Red, Brown & Purple Lines)",41220.0,True,False,False,False,True,False,True,False,False,False,"(41.925051, -87.652866)",Sheffield & DePaul,Chicago
30236.0,S,Fullerton (Loop-bound),Fullerton,"Fullerton (Red, Brown & Purple Lines)",41220.0,True,False,False,False,True,False,True,False,False,False,"(41.925051, -87.652866)",Sheffield & DePaul,Chicago
30100.0,S,Garfield (63rd-bound),Garfield,Garfield (Green Line),40510.0,True,False,False,True,False,False,False,False,False,False,"(41.795172, -87.618327)",Washington Park,Chicago
30099.0,N,Garfield (Harlem-bound),Garfield,Garfield (Green Line),40510.0,True,False,False,True,False,False,False,False,False,False,"(41.795172, -87.618327)",Washington Park,Chicago
30096.0,S,Grand/Milwaukee (Forest Pk-bound),Grand,Grand (Blue Line),40490.0,False,False,True,False,False,False,False,False,False,False,"(41.891189, -87.647578)",West Town,Chicago
30095.0,N,Grand/Milwaukee (O'Hare-bound),Grand,Grand (Blue Line),40490.0,False,False,True,False,False,False,False,False,False,False,"(41.891189, -87.647578)",West Town,Chicago
30065.0,S,Grand/State (95th-bound),Grand,Grand (Red Line),40330.0,True,True,False,False,False,False,False,False,False,False,"(41.891665, -87.628021)",River North,Chicago
30064.0,N,Grand/State (Howard-bound),Grand,Grand (Red Line),40330.0,True,True,False,False,False,False,False,False,False,False,"(41.891665, -87.628021)",River North,Chicago
30148.0,S,Granville (95th-bound),Granville,Granville (Red Line),40760.0,True,True,False,False,False,False,False,False,False,False,"(41.993664, -87.659202)",Edgewater,Chicago
30147.0,N,Granville (Howard-bound),Granville,Granville (Red Line),40760.0,True,True,False,False,False,False,False,False,False,False,"(41.993664, -87.659202)",Edgewater,Chicago
30215.0,N,Halsted (Loop-bound),Halsted,Halsted (Orange Line),41130.0,True,False,False,False,False,False,False,False,False,True,"(41.84678, -87.648088)",Bridgeport,Chicago
30216.0,S,Halsted (Midway-bound),Halsted,Halsted (Orange Line),41130.0,True,False,False,False,False,False,False,False,False,True,"(41.84678, -87.648088)",Bridgeport,Chicago
30184.0,W,Halsted/63rd (Ashland-bound),Halsted,Halsted (Green Line),40940.0,True,False,False,True,False,False,False,False,False,False,"(41.778943, -87.644244)",Englewood,Chicago
30183.0,E,Halsted/63rd (Harlem-bound),Halsted,Halsted (Green Line),40940.0,True,False,False,True,False,False,False,False,False,False,"(41.778943, -87.644244)",Englewood,Chicago
30146.0,S,Harlem (O'Hare Branch) (Forest Pk-bound),Harlem,Harlem (Blue Line - O'Hare Branch),40750.0,True,False,True,False,False,False,False,False,False,False,"(41.98227, -87.8089)",Oriole Park,Chicago
30145.0,N,Harlem (O'Hare Branch) (O'Hare-bound),Harlem,Harlem (Blue Line - O'Hare Branch),40750.0,True,False,True,False,False,False,False,False,False,False,"(41.98227, -87.8089)",Oriole Park,Chicago
30004.0,W,Harlem (Terminal arrival),Harlem/Lake,Harlem/Lake (Green Line),40020.0,True,False,False,True,False,False,False,False,False,False,"(41.886848, -87.803176)",NA,Oak Park
30003.0,E,Harlem (63rd-bound),Harlem/Lake,Harlem/Lake (Green Line),40020.0,True,False,False,True,False,False,False,False,False,False,"(41.886848, -87.803176)",NA,Oak Park
30286.0,S,Harrison (95th-bound),Harrison,Harrison (Red Line),41490.0,False,True,False,False,False,False,False,False,False,False,"(41.874039, -87.627479)",Chicago Loop,Chicago
30285.0,N,Harrison (Howard-bound),Harrison,Harrison (Red Line),41490.0,False,True,False,False,False,False,False,False,False,False,"(41.874039, -87.627479)",Chicago Loop,Chicago
30062.0,N,Division (O'Hare-bound),Division,Division (Blue Line),40320.0,False,False,True,False,False,False,False,False,False,False,"(41.903355, -87.666496)",Pulaski Park,Chicago
30224.0,S,Garfield (95th-bound),Garfield,Garfield (Red Line),41170.0,True,True,False,False,False,False,False,False,False,False,"(41.79542, -87.631157)",Fuller Park,Chicago
30189.0,E,Harlem (Forest Pk Branch) (O'Hare-bound),Harlem,Harlem (Blue Line - Forest Park Branch),40980.0,False,False,True,False,False,False,False,False,False,False,"(41.87349, -87.806961)",NA,Forest Park
30166.0,W,H.W. Library (Inner Loop),Harold Washington Library-State/Van Buren,"Harold Washington Library-State/Van Buren (Brown, Orange, Purple & Pink Lines)",40850.0,True,False,False,False,False,False,True,False,True,True,"(41.876862, -87.628196)",Chicago Loop,Chicago
30176.0,S,Howard (Terminal arrival),Howard,"Howard (Red, Purple & Yellow Lines)",40900.0,True,False,False,False,False,True,True,True,False,False,"(42.019063, -87.672892)",Rogers Park,Chicago
30173.0,N,Howard (Terminal arrival),Howard,"Howard (Red, Purple & Yellow Lines)",40900.0,True,True,False,False,False,False,False,False,False,False,"(42.019063, -87.672892)",Rogers Park,Chicago
30174.0,S,Howard (95th-Bound),Howard,"Howard (Red, Purple & Yellow Lines)",40900.0,True,True,False,False,False,False,False,False,False,False,"(42.019063, -87.672892)",Rogers Park,Chicago
30158.0,W,Illinois Medical District (Forest Pk-bound),Illinois Medical District,Illinois Medical District (Blue Line),40810.0,True,False,True,False,False,False,False,False,False,False,"(41.875706, -87.673932)",Near West Side,Chicago
30157.0,E,Illinois Medical District (O'Hare-bound),Illinois Medical District,Illinois Medical District (Blue Line),40810.0,True,False,True,False,False,False,False,False,False,False,"(41.875706, -87.673932)",Near West Side,Chicago
30059.0,S,Indiana (63rd-bound),Indiana,Indiana (Green Line),40300.0,True,False,False,True,False,False,False,False,False,False,"(41.821732, -87.621371)",Bronzeville,Chicago
30058.0,N,Indiana (Harlem-bound),Indiana,Indiana (Green Line),40300.0,True,False,False,True,False,False,False,False,False,False,"(41.821732, -87.621371)",Bronzeville,Chicago
30108.0,S,Irving Park (O'Hare Branch) (Forest Pk-bound),Irving Park,Irving Park (Blue Line),40550.0,False,False,True,False,False,False,False,False,False,False,"(41.952925, -87.729229)",Old Irving Park,Chicago
30107.0,N,Irving Park (O'Hare Branch) (O'Hare-bound),Irving Park,Irving Park (Blue Line),40550.0,False,False,True,False,False,False,False,False,False,False,"(41.952925, -87.729229)",Old Irving Park,Chicago
30281.0,N,Irving Park (Kimball-bound),Irving Park,Irving Park (Brown Line),41460.0,True,False,False,False,True,False,False,False,False,False,"(41.954521, -87.674868)",North Center,Chicago
30282.0,S,Irving Park (Loop-bound),Irving Park,Irving Park (Brown Line),41460.0,True,False,False,False,True,False,False,False,False,False,"(41.954521, -87.674868)",North Center,Chicago
30015.0,S,Jackson/Dearborn (Forest Pk-bound),Jackson,Jackson (Blue Line),40070.0,True,False,True,False,False,False,False,False,False,False,"(41.878183, -87.629296)",Chicago Loop,Chicago
30014.0,N,Jackson/Dearborn (O'Hare-bound),Jackson,Jackson (Blue Line),40070.0,True,False,True,False,False,False,False,False,False,False,"(41.878183, -87.629296)",Chicago Loop,Chicago
30110.0,S,Jackson/State (95th-bound),Jackson,Jackson (Red Line),40560.0,True,True,False,False,False,False,False,False,False,False,"(41.878153, -87.627596)",Chicago Loop,Chicago
30109.0,N,Jackson/State (Howard-bound),Jackson,Jackson (Red Line),40560.0,True,True,False,False,False,False,False,False,False,False,"(41.878153, -87.627596)",Chicago Loop,Chicago
30228.0,S,Jarvis (95th-bound),Jarvis,Jarvis (Red Line),41190.0,False,True,False,False,False,False,False,False,False,False,"(42.015876, -87.669092)",Rogers Park,Chicago
30227.0,N,Jarvis (Howard-bound),Jarvis,Jarvis (Red Line),41190.0,False,True,False,False,False,False,False,False,False,False,"(42.015876, -87.669092)",Rogers Park,Chicago
30248.0,S,Jefferson Park (Forest Pk-bound),Jefferson Park,Jefferson Park (Blue Line),41280.0,True,False,True,False,False,False,False,False,False,False,"(41.970634, -87.760892)",Jefferson Park,Chicago
30247.0,N,Jefferson Park (O'Hare-bound),Jefferson Park,Jefferson Park (Blue Line),41280.0,True,False,True,False,False,False,False,False,False,False,"(41.970634, -87.760892)",Jefferson Park,Chicago
30219.0,N,Kedzie (Loop-bound),Kedzie,Kedzie (Orange Line),41150.0,True,False,False,False,False,False,False,False,False,True,"(41.804236, -87.704406)",Brighton Park,Chicago
30220.0,S,Kedzie (Midway-bound),Kedzie,Kedzie (Orange Line),41150.0,True,False,False,False,False,False,False,False,False,True,"(41.804236, -87.704406)",Brighton Park,Chicago
30202.0,W,Kedzie (54th/Cermak-bound),Kedzie,Kedzie (Pink Line),41040.0,True,False,False,False,False,False,False,False,True,False,"(41.853964, -87.705408)",North Lawndale,Chicago
30201.0,E,Kedzie (Loop-bound),Kedzie,Kedzie (Pink Line),41040.0,True,False,False,False,False,False,False,False,True,False,"(41.853964, -87.705408)",North Lawndale,Chicago
30225.0,N,Kedzie (Kimball-bound),Kedzie,Kedzie (Brown Line),41180.0,True,False,False,False,True,False,False,False,False,False,"(41.965996, -87.708821)",East Albany Park,Chicago
30226.0,S,Kedzie (Loop-bound),Kedzie,Kedzie (Brown Line),41180.0,True,False,False,False,True,False,False,False,False,False,"(41.965996, -87.708821)",East Albany Park,Chicago
30207.0,E,Kedzie (63rd-bound),Kedzie,Kedzie (Green Line),41070.0,True,False,False,True,False,False,False,False,False,False,"(41.884321, -87.706155)",Garfield Park,Chicago
30208.0,W,Kedzie (Harlem-bound),Kedzie,Kedzie (Green Line),41070.0,True,False,False,True,False,False,False,False,False,False,"(41.884321, -87.706155)",Garfield Park,Chicago
30049.0,W,Kedzie-Homan (Forest Pk-bound),Kedzie-Homan,Kedzie-Homan (Blue Line),40250.0,True,False,True,False,False,False,False,False,False,False,"(41.874341, -87.70604)",Garfield Park,Chicago
30048.0,E,Kedzie-Homan (O'Hare-bound),Kedzie-Homan,Kedzie-Homan (Blue Line),40250.0,True,False,True,False,False,False,False,False,False,False,"(41.874341, -87.70604)",Garfield Park,Chicago
30250.0,S,Kimball (Loop-bound),Kimball,Kimball (Brown Line),41290.0,True,False,False,False,True,False,False,False,False,False,"(41.967901, -87.713065)",Albany Park,Chicago
30249.0,N,Kimball (Terminal arrival),Kimball,Kimball (Brown Line),41290.0,True,False,False,False,True,False,False,False,False,False,"(41.967901, -87.713065)",Albany Park,Chicago
30217.0,E,King Drive (Cottage Grove-bound),King Drive,King Drive (Green Line),41140.0,True,False,False,True,False,False,False,False,False,False,"(41.78013, -87.615546)",Woodlawn,Chicago
30218.0,W,King Drive (Harlem-bound),King Drive,King Drive (Green Line),41140.0,True,False,False,True,False,False,False,False,False,False,"(41.78013, -87.615546)",Woodlawn,Chicago
30118.0,W,Kostner (54th/Cermak-bound),Kostner,Kostner (Pink Line),40600.0,True,False,False,False,False,False,False,False,True,False,"(41.853751, -87.733258)",North Lawndale,Chicago
30117.0,E,Kostner (Loop-bound),Kostner,Kostner (Pink Line),40600.0,True,False,False,False,False,False,False,False,True,False,"(41.853751, -87.733258)",North Lawndale,Chicago
30135.0,E,Laramie (63rd-bound),Laramie,Laramie (Green Line),40700.0,True,False,False,True,False,False,False,False,False,False,"(41.887163, -87.754986)",Austin,Chicago
30136.0,W,Laramie (Harlem-bound),Laramie,Laramie (Green Line),40700.0,True,False,False,True,False,False,False,False,False,False,"(41.887163, -87.754986)",Austin,Chicago
30262.0,W,LaSalle (Forest Pk-bound),LaSalle,LaSalle (Blue Line),41340.0,False,False,True,False,False,False,False,False,False,False,"(41.875568, -87.631722)",Chicago Loop,Chicago
30261.0,E,LaSalle (O'Hare-bound),LaSalle,LaSalle (Blue Line),41340.0,False,False,True,False,False,False,False,False,False,False,"(41.875568, -87.631722)",Chicago Loop,Chicago
30031.0,W,LaSalle/Van Buren (Inner Loop),LaSalle/Van Buren,"LaSalle/Van Buren (Brown, Orange, Purple & Pink Lines)",40160.0,False,False,False,False,False,False,True,False,True,True,"(41.8768, -87.631739)",Chicago Loop,Chicago
30030.0,E,LaSalle/Van Buren (Outer Loop),LaSalle/Van Buren,"LaSalle/Van Buren (Brown, Orange, Purple & Pink Lines)",40160.0,False,False,False,False,True,False,False,False,False,False,"(41.8768, -87.631739)",Chicago Loop,Chicago
30150.0,S,Lawrence (95th-bound),Lawrence,Lawrence (Red Line),40770.0,False,True,False,False,False,False,False,False,False,False,"(41.969139, -87.658493)",Uptown,Chicago
30149.0,N,Lawrence (Howard-bound),Lawrence,Lawrence (Red Line),40770.0,False,True,False,False,False,False,False,False,False,False,"(41.969139, -87.658493)",Uptown,Chicago
30204.0,S,Linden (Howard-Loop-bound),Linden,Linden (Purple Line),41050.0,True,False,False,False,False,True,True,False,False,False,"(42.073153, -87.69073)",NA,Wilmette
30203.0,N,Linden (Linden-bound),Linden,Linden (Purple Line),41050.0,True,False,False,False,False,True,True,False,False,False,"(42.073153, -87.69073)",NA,Wilmette
30198.0,S,Logan Square (Forest Pk-bound),Logan Square,Logan Square (Blue Line),41020.0,True,False,True,False,False,False,False,False,False,False,"(41.929728, -87.708541)",Logan Square,Chicago
30197.0,N,Logan Square (O'Hare-bound),Logan Square,Logan Square (Blue Line),41020.0,True,False,True,False,False,False,False,False,False,False,"(41.929728, -87.708541)",Logan Square,Chicago
30252.0,S,Loyola (95th-bound),Loyola,Loyola (Red Line),41300.0,True,True,False,False,False,False,False,False,False,False,"(42.001073, -87.661061)",Rogers Park,Chicago
30251.0,N,Loyola (Howard-bound),Loyola,Loyola (Red Line),41300.0,True,True,False,False,False,False,False,False,False,False,"(42.001073, -87.661061)",Rogers Park,Chicago
30053.0,S,Main (Howard-Loop-bound),Main,Main (Purple Line),40270.0,False,False,False,False,False,True,True,False,False,False,"(42.033456, -87.679538)",NA,Evanston
30052.0,N,Main (Linden-bound),Main,Main (Purple Line),40270.0,False,False,False,False,False,True,True,False,False,False,"(42.033456, -87.679538)",NA,Evanston
30090.0,N,Merchandise Mart (Kimball-Linden-bound),Merchandise Mart,Merchandise Mart (Brown & Purple Lines),40460.0,True,False,False,False,True,False,True,False,False,False,"(41.888969, -87.633924)",River North,Chicago
30091.0,S,Merchandise Mart (Loop-bound),Merchandise Mart,Merchandise Mart (Brown & Purple Lines),40460.0,True,False,False,False,True,False,True,False,False,False,"(41.888969, -87.633924)",River North,Chicago
30182.0,S,Midway (Arrival),Midway,Midway (Orange Line),40930.0,True,False,False,False,False,False,False,False,False,True,"(41.78661, -87.737875)",Garfield Ridge,Chicago
30181.0,N,Midway (Loop-bound),Midway,Midway (Orange Line),40930.0,True,False,False,False,False,False,False,False,False,True,"(41.78661, -87.737875)",Garfield Ridge,Chicago
30260.0,S,Montrose (Forest Pk-bound),Montrose,Montrose (Blue Line),41330.0,False,False,True,False,False,False,False,False,False,False,"(41.961539, -87.743574)",Irving Park,Chicago
30259.0,N,Montrose (O'Hare-bound),Montrose,Montrose (Blue Line),41330.0,False,False,True,False,False,False,False,False,False,False,"(41.961539, -87.743574)",Irving Park,Chicago
30287.0,N,Montrose (Kimball-bound),Montrose,Montrose (Brown Line),41500.0,True,False,False,False,True,False,False,False,False,False,"(41.961756, -87.675047)",Lincoln Square,Chicago
30288.0,S,Montrose (Loop-bound),Montrose,Montrose (Brown Line),41500.0,True,False,False,False,True,False,False,False,False,False,"(41.961756, -87.675047)",Lincoln Square,Chicago
30296.0,W,Morgan (Harlem-54th/Cermak-bound),Morgan,Morgan (Green & Pink Lines),41510.0,True,False,False,True,False,False,False,False,True,False,"(41.885586, -87.652193)",West Loop,Chicago
30295.0,E,Morgan (Loop-63rd-bound),Morgan,Morgan (Green & Pink Lines),41510.0,True,False,False,True,False,False,False,False,True,False,"(41.885586, -87.652193)",West Loop,Chicago
30021.0,S,Morse (95th-bound),Morse,Morse (Red Line),40100.0,False,True,False,False,False,False,False,False,False,False,"(42.008362, -87.665909)",Rogers Park,Chicago
30290.0,S,Lake (95th-bound),Lake,Lake (Red Line),41660.0,True,True,False,False,False,False,False,False,False,False,"(41.884809, -87.627813)",Chicago Loop,Chicago
30154.0,S,Monroe (Forest Pk-bound),Monroe,Monroe (Blue Line),40790.0,False,False,True,False,False,False,False,False,False,False,"(41.880703, -87.629378)",Chicago Loop,Chicago
30212.0,S,Monroe (95th-bound),Monroe,Monroe (Red Line),41090.0,False,True,False,False,False,False,False,False,False,False,"(41.880745, -87.627696)",Chicago Loop,Chicago
30211.0,N,Monroe (Howard-bound),Monroe,Monroe (Red Line),41090.0,False,True,False,False,False,False,False,False,False,False,"(41.880745, -87.627696)",Chicago Loop,Chicago
30153.0,N,Monroe (O'Hare-bound),Monroe,Monroe (Blue Line),40790.0,False,False,True,False,False,False,False,False,False,False,"(41.880703, -87.629378)",Chicago Loop,Chicago
30020.0,N,Morse (Howard-bound),Morse,Morse (Red Line),40100.0,False,True,False,False,False,False,False,False,False,False,"(42.008362, -87.665909)",Rogers Park,Chicago
30126.0,S,North/Clybourn (95th-bound),North/Clybourn,North/Clybourn (Red Line),40650.0,False,True,False,False,False,False,False,False,False,False,"(41.910655, -87.649177)",Goose Island,Chicago
30125.0,N,North/Clybourn (Howard-bound),North/Clybourn,North/Clybourn (Red Line),40650.0,False,True,False,False,False,False,False,False,False,False,"(41.910655, -87.649177)",Goose Island,Chicago
30079.0,S,Noyes (Howard-Loop-bound),Noyes,Noyes (Purple Line),40400.0,False,False,False,False,False,True,True,False,False,False,"(42.058282, -87.683337)",NA,Evanston
30078.0,N,Noyes (Linden-bound),Noyes,Noyes (Purple Line),40400.0,False,False,False,False,False,True,True,False,False,False,"(42.058282, -87.683337)",NA,Evanston
30035.0,W,Oak Park (Forest Pk-bound),Oak Park,Oak Park (Blue Line),40180.0,False,False,True,False,False,False,False,False,False,False,"(41.872108, -87.791602)",NA,Chicago
30034.0,E,Oak Park (O'Hare-bound),Oak Park,Oak Park (Blue Line),40180.0,False,False,True,False,False,False,False,False,False,False,"(41.872108, -87.791602)",NA,Chicago
30263.0,E,Oak Park (63rd-bound),Oak Park,Oak Park (Green Line),41350.0,False,False,False,True,False,False,False,False,False,False,"(41.886988, -87.793783)",NA,Oak Park
30264.0,W,Oak Park (Harlem-bound),Oak Park,Oak Park (Green Line),41350.0,False,False,False,True,False,False,False,False,False,False,"(41.886988, -87.793783)",NA,Oak Park
30253.0,N,Paulina (Kimball-bound),Paulina,Paulina (Brown Line),41310.0,True,False,False,False,True,False,False,False,False,False,"(41.943623, -87.670907)",Lake View,Chicago
30254.0,S,Paulina (Loop-bound),Paulina,Paulina (Brown Line),41310.0,True,False,False,False,True,False,False,False,False,False,"(41.943623, -87.670907)",Lake View,Chicago
30200.0,W,Polk (54th/Cermak-bound),Polk,Polk (Pink Line),41030.0,True,False,False,False,False,False,False,False,True,False,"(41.871551, -87.66953)",Near West Side,Chicago
30199.0,E,Polk (Loop-bound),Polk,Polk (Pink Line),41030.0,True,False,False,False,False,False,False,False,True,False,"(41.871551, -87.66953)",Near West Side,Chicago
30185.0,N,Pulaski (Loop-bound),Pulaski,Pulaski (Orange Line),40960.0,True,False,False,False,False,False,False,False,False,True,"(41.799756, -87.724493)",Archer Heights,Chicago
30186.0,S,Pulaski (Midway-bound),Pulaski,Pulaski (Orange Line),40960.0,True,False,False,False,False,False,False,False,False,True,"(41.799756, -87.724493)",Archer Heights,Chicago
30029.0,W,Pulaski (54th/Cermak-bound),Pulaski,Pulaski (Pink Line),40150.0,True,False,False,False,False,False,False,False,True,False,"(41.853732, -87.724311)",North Lawndale,Chicago
30028.0,E,Pulaski (Loop-bound),Pulaski,Pulaski (Pink Line),40150.0,True,False,False,False,False,False,False,False,True,False,"(41.853732, -87.724311)",North Lawndale,Chicago
30180.0,W,Pulaski (Forest Pk-bound),Pulaski,Pulaski (Blue Line),40920.0,False,False,True,False,False,False,False,False,False,False,"(41.873797, -87.725663)",Garfield Park,Chicago
30179.0,E,Pulaski (O'Hare-bound),Pulaski,Pulaski (Blue Line),40920.0,False,False,True,False,False,False,False,False,False,False,"(41.873797, -87.725663)",Garfield Park,Chicago
30005.0,E,Pulaski (63rd-bound),Pulaski,Pulaski (Green Line),40030.0,True,False,False,True,False,False,False,False,False,False,"(41.885412, -87.725404)",Garfield Park,Chicago
30006.0,W,Pulaski (Harlem-bound),Pulaski,Pulaski (Green Line),40030.0,True,False,False,True,False,False,False,False,False,False,"(41.885412, -87.725404)",Garfield Park,Chicago
30007.0,N,Quincy/Wells (Inner Loop),Quincy/Wells,"Quincy/Wells (Brown, Orange, Purple & Pink Lines)",40040.0,False,False,False,False,False,False,True,False,True,True,"(41.878723, -87.63374)",Chicago Loop,Chicago
30008.0,S,Quincy/Wells (Outer Loop),Quincy/Wells,"Quincy/Wells (Brown, Orange, Purple & Pink Lines)",40040.0,False,False,False,False,True,False,False,False,False,False,"(41.878723, -87.63374)",Chicago Loop,Chicago
30093.0,W,Racine (Forest Pk-bound),Racine,Racine (Blue Line),40470.0,False,False,True,False,False,False,False,False,False,False,"(41.87592, -87.659458)",Near West Side,Chicago
30092.0,E,Racine (O'Hare-bound),Racine,Racine (Blue Line),40470.0,False,False,True,False,False,False,False,False,False,False,"(41.87592, -87.659458)",Near West Side,Chicago
30297.0,N,Oakton-Skokie (Dempster-Skokie-bound),Oakton-Skokie,Oakton-Skokie (Yellow Line),41680.0,True,False,False,False,False,False,False,True,False,False,"(42.02624348, -87.74722084)",NA,Skokie
30119.0,E,Ridgeland (63rd-bound),Ridgeland,Ridgeland (Green Line),40610.0,False,False,False,True,False,False,False,False,False,False,"(41.887159, -87.783661)",NA,Oak Park
30120.0,W,Ridgeland (Harlem-bound),Ridgeland,Ridgeland (Green Line),40610.0,False,False,False,True,False,False,False,False,False,False,"(41.887159, -87.783661)",NA,Oak Park
30195.0,N,Rockwell (Kimball-bound),Rockwell,Rockwell (Brown Line),41010.0,True,False,False,False,True,False,False,False,False,False,"(41.966115, -87.6941)",Ravenswood Gardens,Chicago
30196.0,S,Rockwell (Loop-bound),Rockwell,Rockwell (Brown Line),41010.0,True,False,False,False,True,False,False,False,False,False,"(41.966115, -87.6941)",Ravenswood Gardens,Chicago
30172.0,S,O'Hare (Forest Pk-bound),O'Hare,O'Hare (Blue Line),40890.0,True,False,True,False,False,False,False,False,False,False,"(41.97766526, -87.90422307)",O'Hare,Chicago
30080.0,N,Roosevelt (Loop-Harlem-bound),Roosevelt,"Roosevelt (Red, Orange & Green Lines)",41400.0,True,False,False,True,False,False,False,False,False,True,"(41.867405, -87.62659)",Chicago Loop,Chicago
30160.0,S,Rosemont (Forest Pk-bound),Rosemont,Rosemont (Blue Line),40820.0,True,False,True,False,False,False,False,False,False,False,"(41.983507, -87.859388)",NA,Rosemont
30159.0,N,Rosemont (O'Hare-bound),Rosemont,Rosemont (Blue Line),40820.0,True,False,True,False,False,False,False,False,False,False,"(41.983507, -87.859388)",NA,Rosemont
30155.0,N,Sedgwick (Kimball-Linden-bound),Sedgwick,Sedgwick (Brown & Purple Lines),40800.0,True,False,False,False,True,False,True,False,False,False,"(41.910409, -87.639302)",Near North Side,Chicago
30156.0,S,Sedgwick (Loop-bound),Sedgwick,Sedgwick (Brown & Purple Lines),40800.0,True,False,False,False,True,False,True,False,False,False,"(41.910409, -87.639302)",Near North Side,Chicago
30017.0,S,Sheridan (95th-bound),Sheridan,Sheridan (Red Line),40080.0,False,True,False,False,False,False,False,False,False,False,"(41.953775, -87.654929)",Lake View East,Chicago
30016.0,N,Sheridan (Howard-bound),Sheridan,Sheridan (Red Line),40080.0,False,True,False,False,False,False,False,False,False,False,"(41.953775, -87.654929)",Lake View East,Chicago
30293.0,N,Sheridan (Howard-Linden-bound),Sheridan,Sheridan (Red Line),40080.0,False,False,False,False,False,False,False,False,False,False,"(41.953775, -87.654929)",Lake View East,Chicago
30294.0,S,Sheridan (Loop-bound),Sheridan,Sheridan (Red Line),40080.0,False,False,False,False,False,False,False,False,False,False,"(41.953775, -87.654929)",Lake View East,Chicago
30164.0,S,South Blvd (Howard-Loop-bound),South Boulevard,South Boulevard (Purple Line),40840.0,False,False,False,False,False,True,True,False,False,False,"(42.027612, -87.678329)",NA,Evanston
30163.0,N,South Blvd (Linden-bound),South Boulevard,South Boulevard (Purple Line),40840.0,False,False,False,False,False,True,True,False,False,False,"(42.027612, -87.678329)",NA,Evanston
30070.0,N,Southport (Kimball-bound),Southport,Southport (Brown Line),40360.0,True,False,False,False,True,False,False,False,False,False,"(41.943744, -87.663619)",Lake View,Chicago
30071.0,S,Southport (Loop-bound),Southport,Southport (Brown Line),40360.0,True,False,False,False,True,False,False,False,False,False,"(41.943744, -87.663619)",Lake View,Chicago
30037.0,S,Sox-35th (95th-bound),Sox-35th,Sox-35th (Red Line),40190.0,True,True,False,False,False,False,False,False,False,False,"(41.831191, -87.630636)",Armour Square,Chicago
30036.0,N,Sox-35th (Howard-bound),Sox-35th,Sox-35th (Red Line),40190.0,True,True,False,False,False,False,False,False,False,False,"(41.831191, -87.630636)",Armour Square,Chicago
30050.0,E,State/Lake (Inner Loop),State/Lake,"State/Lake (Brown, Green, Orange, Pink & Purple Lines)",40260.0,False,False,False,True,False,False,True,False,True,True,"(41.88574, -87.627835)",Chicago Loop,Chicago
30051.0,W,State/Lake (Outer Loop),State/Lake,"State/Lake (Brown, Green, Orange, Pink & Purple Lines)",40260.0,False,False,False,True,True,False,False,False,False,False,"(41.88574, -87.627835)",Chicago Loop,Chicago
30170.0,S,Thorndale (95th-bound),Thorndale,Thorndale (Red Line),40880.0,False,True,False,False,False,False,False,False,False,False,"(41.990259, -87.659076)",Edgewater,Chicago
30169.0,N,Thorndale (Howard-bound),Thorndale,Thorndale (Red Line),40880.0,False,True,False,False,False,False,False,False,False,False,"(41.990259, -87.659076)",Edgewater,Chicago
30069.0,W,UIC-Halsted (Forest Pk-bound),UIC-Halsted,UIC-Halsted (Blue Line),40350.0,True,False,True,False,False,False,False,False,False,False,"(41.875474, -87.649707)",Near West Side,Chicago
30068.0,E,UIC-Halsted (O'Hare-bound),UIC-Halsted,UIC-Halsted (Blue Line),40350.0,True,False,True,False,False,False,False,False,False,False,"(41.875474, -87.649707)",Near West Side,Chicago
30027.0,S,Dempster-Skokie (Howard-bound),Dempster-Skokie,Dempster-Skokie  (Yellow Line),40140.0,True,False,False,False,False,False,False,True,False,False,"(42.038951, -87.751919)",NA,Skokie
30141.0,N,Washington/Wells (Inner Loop),Washington/Wells,"Washington/Wells (Brown, Orange, Purple & Pink Lines)",40730.0,True,False,False,False,False,False,True,False,True,True,"(41.882695, -87.63378)",Chicago Loop,Chicago
30142.0,S,Washington/Wells (Outer Loop),Washington/Wells,"Washington/Wells (Brown, Orange, Purple & Pink Lines)",40730.0,True,False,False,False,True,False,False,False,False,False,"(41.882695, -87.63378)",Chicago Loop,Chicago
30231.0,N,Wellington (Kimball-Linden-bound),Wellington,Wellington (Brown & Purple Lines),41210.0,True,False,False,False,True,False,True,False,False,False,"(41.936033, -87.653266)",Lake View East,Chicago
30232.0,S,Wellington (Loop-bound),Wellington,Wellington (Brown & Purple Lines),41210.0,True,False,False,False,True,False,True,False,False,False,"(41.936033, -87.653266)",Lake View East,Chicago
30060.0,N,Western (Loop-bound),Western,Western (Orange Line),40310.0,True,False,False,False,False,False,False,False,False,True,"(41.804546, -87.684019)",South Side,Chicago
30061.0,S,Western (Midway-bound),Western,Western (Orange Line),40310.0,True,False,False,False,False,False,False,False,False,True,"(41.804546, -87.684019)",South Side,Chicago
30144.0,W,Western (54th/Cermak-bound),Western,Western (Pink Line),40740.0,True,False,False,False,False,False,False,False,True,False,"(41.854225, -87.685129)",Lower West Side,Chicago
30143.0,E,Western (Loop-bound),Western,Western (Pink Line),40740.0,True,False,False,False,False,False,False,False,True,False,"(41.854225, -87.685129)",Lower West Side,Chicago
30269.0,N,Roosevelt (Howard-bound),Roosevelt,"Roosevelt (Red, Orange & Green Lines)",41400.0,True,True,False,False,False,False,False,False,False,False,"(41.867368, -87.627402)",Chicago Loop,Chicago
30081.0,S,Roosevelt (Midway-63rd-bound),Roosevelt,"Roosevelt (Red, Orange & Green Lines)",41400.0,True,False,False,True,False,False,False,False,False,True,"(41.867405, -87.62659)",Chicago Loop,Chicago
30073.0,S,Washington (Forest Pk-bound),Washington,Washington (Blue Line),40370.0,False,False,True,False,False,False,False,False,False,False,"(41.883164, -87.62944)",Chicago Loop,Chicago
30072.0,N,Washington (O'Hare-bound),Washington,Washington (Blue Line),40370.0,False,False,True,False,False,False,False,False,False,False,"(41.883164, -87.62944)",Chicago Loop,Chicago
30283.0,N,Western (Kimball-bound),Western,Western (Brown Line),41480.0,True,False,False,False,True,False,False,False,False,False,"(41.966163, -87.688502)",Lincoln Square,Chicago
30284.0,S,Western (Loop-bound),Western,Western (Brown Line),41480.0,True,False,False,False,True,False,False,False,False,False,"(41.966163, -87.688502)",Lincoln Square,Chicago
30140.0,W,Cottage Grove (Harlem-bound),Cottage Grove,Cottage Grove (Green Line),40720.0,True,False,False,True,False,False,False,False,False,False,"(41.780309, -87.605857)",Woodlawn,Chicago
30121.0,N,Clark/Division (Howard-bound),Clark/Division,Clark/Division (Red Line),40630.0,True,True,False,False,False,False,False,False,False,False,"(41.90392, -87.631412)",Rush & Division,Chicago
30276.0,S,87th (95th-bound),87th,87th (Red Line),41430.0,True,True,False,False,False,False,False,False,False,False,"(41.735372, -87.624717)",South Side,Chicago
30026.0,N,Dempster-Skokie (Arrival),Dempster-Skokie,Dempster-Skokie  (Yellow Line),40140.0,True,False,False,False,False,False,False,True,False,False,"(42.038951, -87.751919)",NA,Skokie
30298.0,S,Oakton-Skokie (Howard-bound),Oakton-Skokie,Oakton-Skokie (Yellow Line),41680.0,True,False,False,False,False,False,False,True,False,False,"(42.02624348, -87.74722084)",NA,Skokie
30210.0,S,47th (63rd-bound),47th,47th (Green Line),41080.0,True,False,False,True,False,False,False,False,False,False,"(41.809209, -87.618826)",Bronzeville,Chicago
30209.0,N,47th (Harlem-bound),47th,47th (Green Line),41080.0,True,False,False,True,False,False,False,False,False,False,"(41.809209, -87.618826)",Bronzeville,Chicago
30238.0,S,47th (95th-bound),47th,47th (Red Line),41230.0,True,True,False,False,False,False,False,False,False,False,"(41.810318, -87.63094)",Fuller Park,Chicago
30237.0,N,47th (Howard-bound),47th,47th (Red Line),41230.0,True,True,False,False,False,False,False,False,False,False,"(41.810318, -87.63094)",Fuller Park,Chicago
30175.0,N,"Howard (Linden, Skokie-bound)",Howard,"Howard (Red, Purple & Yellow Lines)",40900.0,True,False,False,False,False,True,True,True,False,False,"(42.019063, -87.672892)",Rogers Park,Chicago
30111.0,N,California (O'Hare-bound),California,California (Blue Line),40570.0,False,False,True,False,False,False,False,False,False,False,"(41.921939, -87.69689)",Logan Square,Chicago
30112.0,S,California (Forest Pk-bound),California,California  (Blue Line),40570.0,False,False,True,False,False,False,False,False,False,False,"(41.921939, -87.69689)",Logan Square,Chicago
30271.0,N,Chicago (O'Hare-bound),Chicago,Chicago (Blue Line),41410.0,False,False,True,False,False,False,False,False,False,False,"(41.896075, -87.655214)",West Town,Chicago
30138.0,S,Chicago (Loop-bound),Chicago,Chicago (Brown & Purple Lines),40710.0,True,False,False,False,True,False,True,False,False,False,"(41.89681, -87.635924)",Near North,Chicago
30137.0,N,Chicago (Kimball-Linden-bound),Chicago,Chicago (Brown & Purple Lines),40710.0,True,False,False,False,True,False,True,False,False,False,"(41.89681, -87.635924)",Near North,Chicago
30280.0,S,Chicago (95th-bound),Chicago,Chicago (Red Line),41450.0,True,True,False,False,False,False,False,False,False,False,"(41.896671, -87.628176)",River North,Chicago
30279.0,N,Chicago (Howard-bound),Chicago,Chicago (Red Line),41450.0,True,True,False,False,False,False,False,False,False,False,"(41.896671, -87.628176)",River North,Chicago
30272.0,S,Chicago (Forest Pk-bound),Chicago,Chicago (Blue Line),41410.0,False,False,True,False,False,False,False,False,False,False,"(41.896075, -87.655214)",West Town,Chicago
30178.0,S,63rd (95th-bound),63rd,63rd (Red Line),40910.0,True,True,False,False,False,False,False,False,False,False,"(41.780536, -87.630952)",Englewood,Chicago
30177.0,N,63rd (Howard-bound),63rd,63rd (Red Line),40910.0,True,True,False,False,False,False,False,False,False,False,"(41.780536, -87.630952)",Englewood,Chicago
30223.0,N,Garfield (Howard-bound),Garfield,Garfield (Red Line),41170.0,True,True,False,False,False,False,False,False,False,False,"(41.79542, -87.631157)",Fuller Park,Chicago
30190.0,W,Harlem (Forest Pk Branch) (Terminal arrival),Harlem,Harlem (Blue Line - Forest Park Branch),40980.0,False,False,True,False,False,False,False,False,False,False,"(41.87349, -87.806961)",NA,Forest Park
30165.0,E,H.W. Library (Outer Loop),Harold Washington Library-State/Van Buren,"Harold Washington Library-State/Van Buren (Brown, Orange, Purple & Pink Lines)",40850.0,True,False,False,False,True,False,False,False,False,False,"(41.876862, -87.628196)",Chicago Loop,Chicago
30130.0,S,Western (O'Hare Branch) (Forest Pk-bound),Western,Western (Blue Line - O'Hare Branch),40670.0,True,False,True,False,False,False,False,False,False,False,"(41.916157, -87.687364)",Bucktown,Chicago
30289.0,N,Lake (Howard-bound),Lake,Lake (Red Line),41660.0,True,True,False,False,False,False,False,False,False,False,"(41.884809, -87.627813)",Chicago Loop,Chicago
30270.0,S,Roosevelt (95th-bound),Roosevelt,"Roosevelt (Red, Orange & Green Lines)",41400.0,True,True,False,False,False,False,False,False,False,False,"(41.867368, -87.627402)",Chicago Loop,Chicago
30171.0,N,O'Hare (Terminal Arrival),O'Hare,O'Hare (Blue Line),40890.0,True,False,True,False,False,False,False,False,False,False,"(41.97766526, -87.90422307)",O'Hare,Chicago
30042.0,E,Western (Forest Pk Branch) (O'Hare-bound),Western,Western (Blue Line - Forest Park Branch),40220.0,False,False,True,False,False,False,False,False,False,False,"(41.875478, -87.688436)",Near West Side,Chicago
30043.0,W,Western (Forest Pk Branch) (Forest Pk-bound),Western,Western (Blue Line - Forest Park Branch),40220.0,False,False,True,False,False,False,False,False,False,False,"(41.875478, -87.688436)",Near West Side,Chicago
30129.0,N,Western (O'Hare Branch) (O'Hare-bound),Western,Western (Blue Line - O'Hare Branch),40670.0,True,False,True,False,False,False,False,False,False,False,"(41.916157, -87.687364)",Bucktown,Chicago
30381.0,N,Cermak-McCormick Place (Harlem-bound),Cermak-McCormick Place,Cermak-McCormick Place (Green Line),41690.0,True,False,False,True,False,False,False,False,False,False,"(41.853115, -87.626402)",Near South Side,Chicago
30382.0,S,Cermak-McCormick Place (63rd-bound),Cermak-McCormick Place,Cermak-McCormick Place (Green Line),41690.0,True,False,False,True,False,False,False,False,False,False,"(41.853115, -87.626402)",Near South Side,Chicago
30386.0,N,Wilson (Linden-bound),Wilson,Wilson (Red & Purple Lines),40540.0,True,False,False,False,False,False,True,False,False,False,"(41.964273, -87.657588)",Uptown,Chicago
30240.0,S,Addison (Forest Pk-bound),Addison,Addison (Blue Line),41240.0,True,False,True,False,False,False,False,False,False,False,"(41.94738, -87.71906)",Irving Park,Chicago
30105.0,N,Wilson (Howard-bound),Wilson,Wilson (Red & Purple Lines),40540.0,True,True,False,False,False,False,False,False,False,False,"(41.964273, -87.657588)",Uptown,Chicago
30384.0,S,Washington/Wabash (Inner Loop),Washington/Wabash,"Washington/Wabash (Brown, Green, Orange, Purple & Pink Lines)",41700.0,True,False,False,True,False,False,True,False,True,True,"(41.88322, -87.626189)",Chicago Loop,Chicago
30122.0,S,Clark/Division (95th-bound),Clark/Division,Clark/Division (Red Line),40630.0,True,True,False,False,False,False,False,False,False,False,"(41.90392, -87.631412)",Rush & Division,Chicago
30239.0,N,Addison (O'Hare-bound),Addison,Addison (Blue Line),41240.0,True,False,True,False,False,False,False,False,False,False,"(41.94738, -87.71906)",Irving Park,Chicago
30106.0,S,Wilson (95th-bound),Wilson,Wilson (Red & Purple Lines),40540.0,True,True,False,False,False,False,False,False,False,False,"(41.964273, -87.657588)",Uptown,Chicago
30383.0,N,Washington/Wabash (Outer Loop),Washington/Wabash,"Washington/Wabash (Brown, Green, Orange, Purple & Pink Lines)",41700.0,True,False,False,True,True,False,False,False,False,False,"(41.88322, -87.626189)",Chicago Loop,Chicago
30385.0,S,Wilson (Loop-bound),Wilson,Wilson (Red & Purple Lines),40540.0,True,False,False,False,False,False,True,False,False,False,"(41.964273, -87.657588)",Uptown,Chicago
30033.0,W,Ashland (Harlem-54th/Cermak-bound),Ashland,Ashland (Green & Pink Lines),40170.0,True,False,False,True,False,False,False,False,True,False,"(41.885269, -87.666969)",West Loop,Chicago
30032.0,E,Ashland (Loop-63rd-bound),Ashland,Ashland (Green & Pink Lines),40170.0,True,False,False,True,False,False,False,False,True,False,"(41.885269, -87.666969)",West Loop,Chicago
,,,Washington/State (Closed),Washington/State (Closed),,,True,False,False,False,False,False,False,False,False,"(41.8837, -87.6278)",Chicago Loop,Chicago
,,,Randolph/Wabash (Closed),Randolph/Wabash (Closed),,,False,False,True,True,False,True,False,True,True,"(41.884431, -87.626149)",Chicago Loop,Chicago
,,,Madison/Wabash (Closed),Madison/Wabash (Closed),,,False,False,True,True,False,True,False,True,True,"(41.882023, -87.626098)",Chicago Loop,Chicago
,,,Homan (Closed),Homan (Closed),,,False,False,True,False,False,False,False,False,False,"(41.884914, -87.711327)",Garfield Park,Chicago
